{"postalCodes":[{"adminCode1":"L","lng":-6.254537,"countryCode":"IE","postalCode":"D01","adminName1":"Leinster","ISO3166-2":"L","placeName":"Dublin 1","lat":53.353976},{"adminCode1":"L","lng":-6.254295,"countryCode":"IE","postalCode":"D02","adminName1":"Leinster","ISO3166-2":"L","placeName":"Dublin 2","lat":53.339971},{"adminCode1":"L","lng":-6.23776,"countryCode":"IE","postalCode":"D03","adminName1":"Leinster","ISO3166-2":"L","placeName":"Dublin 3","lat":53.364465},{"adminCode1":"L","lng":-6.233526,"countryCode":"IE","postalCode":"D04","adminName1":"Leinster","ISO3166-2":"L","placeName":"Dublin 4","lat":53.333435},{"adminCode1":"L","lng":-6.192128,"countryCode":"IE","postalCode":"D05","adminName1":"Leinster","ISO3166-2":"L","placeName":"Dublin 5","lat":53.384222},{"adminCode1":"L","lng":-6.263126,"countryCode":"IE","postalCode":"D06","adminName1":"Leinster","ISO3166-2":"L","placeName":"Dublin 6","lat":53.308787},{"adminCode1":"L","lng":-6.291792,"countryCode":"IE","postalCode":"D07","adminName1":"Leinster","ISO3166-2":"L","placeName":"Dublin 7","lat":53.361507},{"adminCode1":"L","lng":-6.273257,"countryCode":"IE","postalCode":"D08","adminName1":"Leinster","ISO3166-2":"L","placeName":"Dublin 8","lat":53.33455},{"adminCode1":"L","lng":-6.246501,"countryCode":"IE","postalCode":"D09","adminName1":"Leinster","ISO3166-2":"L","placeName":"Dublin 9","lat":53.381763},{"adminCode1":"L","lng":-6.354476,"countryCode":"IE","postalCode":"D10","adminName1":"Leinster","ISO3166-2":"L","placeName":"Dublin 10","lat":53.340906},{"adminCode1":"L","lng":-6.292976,"countryCode":"IE","postalCode":"D11","adminName1":"Leinster","ISO3166-2":"L","placeName":"Dublin 11","lat":53.389903},{"adminCode1":"L","lng":-6.316477,"countryCode":"IE","postalCode":"D12","adminName1":"Leinster","ISO3166-2":"L","placeName":"Dublin 12","lat":53.32203},{"adminCode1":"L","lng":-6.1495,"countryCode":"IE","postalCode":"D13","adminName1":"Leinster","ISO3166-2":"L","placeName":"Dublin 13","lat":53.394577},{"adminCode1":"L","lng":-6.259331,"countryCode":"IE","postalCode":"D14","adminName1":"Leinster","ISO3166-2":"L","placeName":"Dublin 14","lat":53.295987},{"adminCode1":"L","lng":-6.416518,"countryCode":"IE","postalCode":"D15","adminName1":"Leinster","ISO3166-2":"L","placeName":"Dublin 15","lat":53.383156},{"adminCode1":"L","lng":-6.278967,"countryCode":"IE","postalCode":"D16","adminName1":"Leinster","ISO3166-2":"L","placeName":"Dublin 16","lat":53.341884},{"adminCode1":"L","lng":-6.205763,"countryCode":"IE","postalCode":"D17","adminName1":"Leinster","ISO3166-2":"L","placeName":"Dublin 17","lat":53.400646},{"adminCode1":"L","lng":-6.177386,"countryCode":"IE","postalCode":"D18","adminName1":"Leinster","ISO3166-2":"L","placeName":"Dublin 18","lat":53.246902},{"adminCode1":"L","lng":-6.369332,"countryCode":"IE","postalCode":"D20","adminName1":"Leinster","ISO3166-2":"L","placeName":"Dublin 20","lat":53.35177},{"adminCode1":"L","lng":-6.400591,"countryCode":"IE","postalCode":"D22","adminName1":"Leinster","ISO3166-2":"L","placeName":"Dublin 22","lat":53.32751},{"adminCode1":"L","lng":-6.371327,"countryCode":"IE","postalCode":"D24","adminName1":"Leinster","ISO3166-2":"L","placeName":"Dublin 24","lat":53.285119},{"adminCode1":"L","lng":-6.30119,"countryCode":"IE","postalCode":"D6W","adminName1":"Leinster","ISO3166-2":"L","placeName":"Dublin 6W","lat":53.308651}]}